[
  {
    "id": 12930,
    "name": "Riscas",
    "lostDate": "September 2018",
    "ownerName": "Jorge Seabra",
    "location": "Faro",
    "donatedAmount": 50000,
    "phone": "351934023604",
    "image": "https://placekitten.com/960/690"
  },
  {
    "id": 12931,
    "name": "Jagger",
    "lostDate": "March 2019",
    "ownerName": "Augusto José",
    "location": "Loulé",
    "donatedAmount": 10000,
    "phone": "351452943875",
    "image": "https://placekitten.com/960/690"
  },
  {
    "id": 12932,
    "name": "Amy",
    "lostDate": "April 2019",
    "ownerName": "Ricardo Silva",
    "location": "Loulé",
    "donatedAmount": 8000,
    "phone": "3511234123432",
    "image": "https://placekitten.com/960/690"
  },
  {
    "id": 12933,
    "name": "Lennon",
    "lostDate": "January 2019",
    "ownerName": "Nathalia Silva",
    "location": "Loulé",
    "donatedAmount": 18000,
    "phone": "351093234033",
    "image": "https://placekitten.com/960/690"
  },
  {
    "id": 12934,
    "name": "Sherlock",
    "lostDate": "February 2019",
    "ownerName": "Maria João",
    "location": "Loulé",
    "donatedAmount": 13000,
    "phone": "351123432234",
    "image": "https://placekitten.com/960/690"
  },
  {
    "id": 12935,
    "name": "Zeus",
    "lostDate": "June 2019",
    "ownerName": "Marina Boschi",
    "location": "Portimão",
    "donatedAmount": 300000,
    "phone": "351903423954",
    "image": "https://placekitten.com/960/690"
  },
  {
    "id": 12936,
    "name": "Atena",
    "lostDate": "January 2019",
    "ownerName": "Débora Aparecida",
    "location": "Quarteira",
    "donatedAmount":280000,
    "phone": "351123432234",
    "image": "https://placekitten.com/960/690"
  },
  {
    "id": 12937,
    "name": "Pepe",
    "lostDate": "February 2019",
    "ownerName": "Monica Sousa",
    "location": "Loulé",
    "donatedAmount": 130000,
    "phone": "351132423324",
    "image": "https://placekitten.com/960/690"
  }
]
